DMR Station ID,Forecast Initialized Date,Location,Latitude,Longitude,Forecast Start Date,Forecast End Date,Closure-level PSP Probability,Predicted Class
PSP19.15,2024-08-28,Stonington,44.15419,-68.65947,2024-09-01,2024-09-07,<1%,Low
PSP21.09,2024-08-28,Bass Hbr.,44.23824,-68.34792,2024-09-01,2024-09-07,<1%,Low
PSP23.07,2024-08-25,Corea Hbr.,44.39319,-67.97628,2024-08-29,2024-09-04,<1%,Low
PSP24.08,2024-08-25,Ripley Pt.,44.52198,-67.79233,2024-08-29,2024-09-04,<1%,Low
PSP25.06,2024-08-19,Kelley Pt.,44.53205,-67.5655,2024-08-23,2024-08-29,<1%,Low
PSP26.07,2024-08-26,Cutler Hbr.,44.65701,-67.20525,2024-08-30,2024-09-05,<1%,Low
PSP27.05,2024-08-26,Gove Pt.,44.90545,-67.05621,2024-08-30,2024-09-05,<1%,Low
PSP27.46,2024-08-26,Gleason Cove,44.97084,-67.05254,2024-08-30,2024-09-05,<1%,Low
